[
  {
    "id": 524894,
    "name": "Moskva",
    "country": "RU",
    "coord": {
      "lon": 37.606667,
      "lat": 55.761665
    }
  },
  {
    "id": 1497337,
    "name": "Norilsk",
    "country": "RU",
    "coord": {
      "lon": 88.202698,
      "lat": 69.3535
    }
  },
  {
    "id": 2643743,
    "name": "London",
    "country": "GB",
    "coord": {
      "lon": -0.12574,
      "lat": 51.50853
    }
  },
  {
    "id": 6455259,
    "name": "Paris",
    "country": "FR",
    "coord": {
      "lon": 2.35236,
      "lat": 48.856461
    }
  },
  {
    "id": 5128638,
    "name": "New York",
    "country": "US",
    "coord": {
      "lon": -75.499901,
      "lat": 43.000351
    }
  }
]